[{"code":"IAD","name":"Washington","state":"District of Columbia","country":"United States","country_code":"US","count":11,"latitude":38.9445,"longitude":-77.4558,"region":"North America","pricing_region":"United States, Mexico, & Canada"},{"code":"ORD","name":"Chicago","state":"Illinois","country":"United States","country_code":"US","count":19,"latitude":41.97861,"longitude":-87.904724,"region":"North America","pricing_region":"United States, Mexico, & Canada"},{"code":"JFK","name":"New York","state":"New York","country":"United States","country_code":"US","count":10,"latitude":40.6398,"longitude":-73.7789,"region":"North America","pricing_region":"United States, Mexico, & Canada"},{"code":"ATL","name":"Atlanta","state":"Georgia","country":"United States","country_code":"US","count":10,"latitude":33.6367,"longitude":-84.4281,"region":"North America","pricing_region":"United States, Mexico, & Canada"},{"code":"LAX","name":"Los Angeles","state":"California","country":"United States","country_code":"US","count":9,"latitude":33.9425,"longitude":-118.408,"region":"North America","pricing_region":"United States, Mexico, & Canada"},{"code":"MIA","name":"Miami","state":"Florida","country":"United States","country_code":"US","count":11,"latitude":25.7932,"longitude":-80.2906,"region":"North America","pricing_region":"United States, Mexico, & Canada"},{"code":"DFW","name":"Dallas-Fort Worth","state":"Texas","country":"United States","country_code":"US","count":11,"latitude":32.8968,"longitude":-97.038,"region":"North America","pricing_region":"United States, Mexico, & Canada"},{"code":"IAH","name":"Houston","state":"Texas","country":"United States","country_code":"US","count":4,"latitude":29.9844,"longitude":-95.3414,"region":"North America","pricing_region":"United States, Mexico, & Canada"},{"code":"SFO","name":"San Francisco","state":"California","country":"United States","country_code":"US","count":6,"latitude":37.619,"longitude":-122.375,"region":"North America","pricing_region":"United States, Mexico, & Canada"},{"code":"BOS","name":"Boston","state":"Massachusetts","country":"United States","country_code":"US","count":5,"latitude":42.3643,"longitude":-71.0052,"region":"North America","pricing_region":"United States, Mexico, & Canada"},{"code":"DEN","name":"Denver","state":"Colorado","country":"United States","country_code":"US","count":3,"latitude":39.8617,"longitude":-104.673,"region":"North America","pricing_region":"United States, Mexico, & Canada"},{"code":"PDX","name":"Portland","state":"Oregon","country":"United States","country_code":"US","count":2,"latitude":45.5887,"longitude":-122.598,"region":"North America","pricing_region":"United States, Mexico, & Canada"},{"code":"SEA","name":"Seattle","state":"Washington","country":"United States","country_code":"US","count":6,"latitude":47.44889,"longitude":-122.30944,"region":"North America","pricing_region":"United States, Mexico, & Canada"},{"code":"YTO","name":"Toronto","state":"Canada","country":"Canada","country_code":"CA","count":3,"latitude":43.6772,"longitude":-79.6306,"region":"North America","pricing_region":"United States, Mexico, & Canada"},{"code":"MSP","name":"Minneapolis","state":"Minnesota","country":"United States","country_code":"US","count":4,"latitude":44.882,"longitude":-93.2218,"region":"North America","pricing_region":"United States, Mexico, & Canada"},{"code":"PHX","name":"Phoenix","state":"Arizona","country":"United States","country_code":"US","count":2,"latitude":33.4343,"longitude":-112.012,"region":"North America","pricing_region":"United States, Mexico, & Canada"},{"code":"QRO","name":"Queretaro","state":"Mexico","country":"Mexico","country_code":"MX","count":2,"latitude":20.6173,"longitude":-100.186,"region":"North America","pricing_region":"United States, Mexico, & Canada"},{"code":"YUL","name":"Montréal","state":"Canada","country":"Canada","country_code":"CA","count":2,"latitude":45.4706,"longitude":-73.7408,"region":"North America","pricing_region":"United States, Mexico, & Canada"},{"code":"PHL","name":"Philadelphia","state":"Pennsylvania","country":"United States","country_code":"US","count":1,"latitude":39.8719,"longitude":-75.2411,"region":"North America","pricing_region":"United States, Mexico, & Canada"},{"code":"SLC","name":"Salt Lake City","state":"Utah","country":"United States","country_code":"US","count":1,"latitude":40.7884,"longitude":-111.978,"region":"North America","pricing_region":"United States, Mexico, & Canada"},{"code":"YVR","name":"Vancouver","state":"Canada","country":"Canada","country_code":"CA","count":1,"latitude":49.1939,"longitude":-123.184,"region":"North America","pricing_region":"United States, Mexico, & Canada"},{"code":"BNA","name":"Nashville","state":"Tennessee","country":"United States","country_code":"US","count":2,"latitude":36.1245,"longitude":-86.6782,"region":"North America","pricing_region":"United States, Mexico, & Canada"},{"code":"DTW","name":"Detroit","state":"Michigan","country":"United States","country_code":"US","count":2,"latitude":42.2124,"longitude":-83.3534,"region":"North America","pricing_region":"United States, Mexico, & Canada"},{"code":"FRA","name":"Frankfurt am Main","state":"","country":"Germany","country_code":"DE","count":17,"latitude":50.033333,"longitude":8.570556,"region":"Europe","pricing_region":"Europe & Israel"},{"code":"LHR","name":"London","state":"","country":"UK","country_code":"GB","count":24,"latitude":51.4775,"longitude":-0.461389,"region":"Europe","pricing_region":"Europe & Israel"},{"code":"CDG","name":"Paris","state":"","country":"France","country_code":"FR","count":9,"latitude":49.0128,"longitude":2.55,"region":"Europe","pricing_region":"Europe & Israel"},{"code":"MXP","name":"Milan","state":"","country":"Italy","country_code":"IT","count":9,"latitude":45.6306,"longitude":8.72811,"region":"Europe","pricing_region":"Europe & Israel"},{"code":"FCO","name":"Rome","state":"","country":"Italy","country_code":"IT","count":6,"latitude":41.800278,"longitude":12.238889,"region":"Europe","pricing_region":"Europe & Israel"},{"code":"TXL","name":"Berlin","state":"","country":"Germany","country_code":"DE","count":5,"latitude":52.559723,"longitude":13.287778,"region":"Europe","pricing_region":"Europe & Israel"},{"code":"MAD","name":"Madrid","state":"","country":"Spain","country_code":"ES","count":4,"latitude":40.471928,"longitude":-3.56264,"region":"Europe","pricing_region":"Europe & Israel"},{"code":"MRS","name":"Marseille","state":"","country":"France","country_code":"FR","count":4,"latitude":43.43927,"longitude":5.221424,"region":"Europe","pricing_region":"Europe & Israel"},{"code":"AMS","name":"Amsterdam","state":"","country":"The Netherlands","country_code":"NL","count":4,"latitude":52.3086,"longitude":4.76389,"region":"Europe","pricing_region":"Europe & Israel"},{"code":"DUS","name":"Düsseldorf","state":"","country":"Germany","country_code":"DE","count":3,"latitude":51.2895,"longitude":6.76678,"region":"Europe","pricing_region":"Europe & Israel"},{"code":"HAM","name":"Hamburg","state":"","country":"Germany","country_code":"DE","count":3,"latitude":53.6304,"longitude":9.98823,"region":"Europe","pricing_region":"Europe & Israel"},{"code":"MAN","name":"Manchester","state":"","country":"UK","country_code":"GB","count":5,"latitude":53.3537,"longitude":-2.27495,"region":"Europe","pricing_region":"Europe & Israel"},{"code":"MUC","name":"Munich","state":"","country":"Germany","country_code":"DE","count":4,"latitude":48.3538,"longitude":11.7861,"region":"Europe","pricing_region":"Europe & Israel"},{"code":"VIE","name":"Vienna","state":"","country":"Austria","country_code":"AT","count":3,"latitude":48.1103,"longitude":16.5697,"region":"Europe","pricing_region":"Europe & Israel"},{"code":"ARN","name":"Stockholm","state":"","country":"Sweden","country_code":"SE","count":3,"latitude":59.6519,"longitude":17.9186,"region":"Europe","pricing_region":"Europe & Israel"},{"code":"CPH","name":"Copenhagen","state":"","country":"Denmark","country_code":"DK","count":2,"latitude":55.6179,"longitude":12.656,"region":"Europe","pricing_region":"Europe & Israel"},{"code":"DUB","name":"Dublin","state":"","country":"Ireland","country_code":"IE","count":2,"latitude":53.4213,"longitude":-6.27007,"region":"Europe","pricing_region":"Europe & Israel"},{"code":"HEL","name":"Helsinki","state":"","country":"Finland","country_code":"FI","count":3,"latitude":60.3172,"longitude":24.9633,"region":"Europe","pricing_region":"Europe & Israel"},{"code":"ATH","name":"Athens","state":"","country":"Greece","country_code":"GR","count":1,"latitude":37.9364,"longitude":23.9445,"region":"Europe","pricing_region":"Europe & Israel"},{"code":"BRU","name":"Brussels","state":"","country":"Belgium","country_code":"BE","count":1,"latitude":50.9014,"longitude":4.48444,"region":"Europe","pricing_region":"Europe & Israel"},{"code":"BUD","name":"Budapest","state":"","country":"Hungary","country_code":"HU","count":1,"latitude":47.42976,"longitude":19.261093,"region":"Europe","pricing_region":"Europe & Israel"},{"code":"LIS","name":"Lisbon","state":"","country":"Portugal","country_code":"PT","count":1,"latitude":38.7813,"longitude":-9.13592,"region":"Europe","pricing_region":"Europe & Israel"},{"code":"OSL","name":"Oslo","state":"","country":"Norway","country_code":"NO","count":2,"latitude":60.1939,"longitude":11.1004,"region":"Europe","pricing_region":"Europe & Israel"},{"code":"OTP","name":"Bucharest","state":"","country":"Romania","country_code":"RO","count":1,"latitude":44.57111,"longitude":26.085,"region":"Europe","pricing_region":"Europe & Israel"},{"code":"PMO","name":"Palermo","state":"","country":"Italy","country_code":"IT","count":1,"latitude":38.176,"longitude":13.091,"region":"Europe","pricing_region":"Europe & Israel"},{"code":"PRG","name":"Prague","state":"","country":"Czech","country_code":"CZ","count":1,"latitude":50.1008,"longitude":14.26,"region":"Europe","pricing_region":"Europe & Israel"},{"code":"SOF","name":"Sofia","state":"","country":"Bulgaria","country_code":"BG","count":1,"latitude":42.696693,"longitude":23.411436,"region":"Europe","pricing_region":"Europe & Israel"},{"code":"WAW","name":"Warsaw","state":"","country":"Poland","country_code":"PL","count":1,"latitude":52.165833,"longitude":20.967222,"region":"Europe","pricing_region":"Europe & Israel"},{"code":"ZAG","name":"Zagreb","state":"","country":"Croatia","country_code":"HR","count":1,"latitude":45.7429,"longitude":16.0688,"region":"Europe","pricing_region":"Europe & Israel"},{"code":"ZRH","name":"Zurich","state":"","country":"Switzerland","country_code":"CH","count":1,"latitude":47.4647,"longitude":8.54917,"region":"Europe","pricing_region":"Europe & Israel"},{"code":"NRT","name":"Tokyo","state":"","country":"Japan","country_code":"JP","count":20,"latitude":35.7647,"longitude":140.386,"region":"Asia","pricing_region":"Japan"},{"code":"DEL","name":"New Delhi","state":"","country":"India","country_code":"IN","count":7,"latitude":28.5665,"longitude":77.1031,"region":"Asia","pricing_region":"India"},{"code":"ICN","name":"Seoul","state":"","country":"Korea","country_code":"KR","count":6,"latitude":37.4691,"longitude":126.451,"region":"Asia","pricing_region":"Hong Kong, Indonesia, Philippines, Singapore, South Korea, Taiwan, & Thailand"},{"code":"MAA","name":"Chennai","state":"","country":"India","country_code":"IN","count":7,"latitude":12.9900055,"longitude":80.1693,"region":"Asia","pricing_region":"India"},{"code":"SIN","name":"Singapore","state":"","country":"Singapore","country_code":"SG","count":6,"latitude":1.35019,"longitude":103.994,"region":"Asia","pricing_region":"Hong Kong, Indonesia, Philippines, Singapore, South Korea, Taiwan, & Thailand"},{"code":"KIX","name":"Osaka","state":"","country":"Japan","country_code":"JP","count":7,"latitude":34.4273,"longitude":135.244,"region":"Asia","pricing_region":"Japan"},{"code":"BOM","name":"Mumbai","state":"","country":"India","country_code":"IN","count":10,"latitude":19.0887,"longitude":72.8679,"region":"Asia","pricing_region":"India"},{"code":"BLR","name":"Bangalore","state":"","country":"India","country_code":"IN","count":4,"latitude":13.1979,"longitude":77.7063,"region":"Asia","pricing_region":"India"},{"code":"HYD","name":"Hyderabad","state":"","country":"India","country_code":"IN","count":3,"latitude":17.231318,"longitude":78.429855,"region":"Asia","pricing_region":"India"},{"code":"TPE","name":"Taipei","state":"","country":"Taiwan","country_code":"TW","count":3,"latitude":25.0777,"longitude":121.233,"region":"Asia","pricing_region":"Hong Kong, Indonesia, Philippines, Singapore, South Korea, Taiwan, & Thailand"},{"code":"BKK","name":"Bangkok","state":"","country":"Thailand","country_code":"TH","count":10,"latitude":13.689999,"longitude":100.750114,"region":"Asia","pricing_region":"Hong Kong, Indonesia, Philippines, Singapore, South Korea, Taiwan, & Thailand"},{"code":"CCU","name":"Kolkata","state":"","country":"India","country_code":"IN","count":2,"latitude":22.6547,"longitude":88.4467,"region":"Asia","pricing_region":"India"},{"code":"CGK","name":"Jakarta","state":"","country":"Indonesia","country_code":"ID","count":2,"latitude":-6.12557,"longitude":106.656,"region":"Asia","pricing_region":"Hong Kong, Indonesia, Philippines, Singapore, South Korea, Taiwan, & Thailand"},{"code":"KUL","name":"Kuala Lumpur","state":"","country":"Malaysia","country_code":"MY","count":2,"latitude":2.74558,"longitude":101.71,"region":"Asia","pricing_region":"Hong Kong, Indonesia, Philippines, Singapore, South Korea, Taiwan, & Thailand"},{"code":"MNL","name":"Manila","state":"","country":"Philippines","country_code":"PH","count":1,"latitude":14.5086,"longitude":121.02,"region":"Asia","pricing_region":"Hong Kong, Indonesia, Philippines, Singapore, South Korea, Taiwan, & Thailand"},{"code":"HAN","name":"Hanoi","state":"","country":"Vietnam","country_code":"VN","count":1,"latitude":21.2212,"longitude":105.807,"region":"Asia","pricing_region":"Hong Kong, Indonesia, Philippines, Singapore, South Korea, Taiwan, & Thailand"},{"code":"SGN","name":"Ho Chi Minh","state":"","country":"Vietnam","country_code":"VN","count":1,"latitude":10.818889,"longitude":106.65195,"region":"Asia","pricing_region":"Hong Kong, Indonesia, Philippines, Singapore, South Korea, Taiwan, & Thailand"},{"code":"SYD","name":"Sydney","state":"","country":"Australia","country_code":"AU","count":6,"latitude":-33.9461,"longitude":151.177,"region":"Australia & New Zealand","pricing_region":"Australia & New Zealand"},{"code":"AKL","name":"Auckland","state":"","country":"New Zealand","country_code":"NZ","count":3,"latitude":-37.0081,"longitude":174.792,"region":"Australia & New Zealand","pricing_region":"Australia & New Zealand"},{"code":"MEL","name":"Melbourne","state":"","country":"Australia","country_code":"AU","count":2,"latitude":-37.6733,"longitude":144.843,"region":"Australia & New Zealand","pricing_region":"Australia & New Zealand"},{"code":"PER","name":"Perth","state":"","country":"Australia","country_code":"AU","count":1,"latitude":-31.9403,"longitude":115.967,"region":"Australia & New Zealand","pricing_region":"Australia & New Zealand"},{"code":"GRU","name":"Sao Paulo","state":"","country":"Brazil","country_code":"BR","count":7,"latitude":-23.435556,"longitude":-46.473057,"region":"South America","pricing_region":"South America"},{"code":"GIG","name":"Rio De Janeiro","state":"","country":"Brazil","country_code":"BR","count":2,"latitude":-22.81,"longitude":-43.250557,"region":"South America","pricing_region":"South America"},{"code":"BOG","name":"Bogota","state":"","country":"Colombia","country_code":"CO","count":2,"latitude":4.70159,"longitude":-74.1469,"region":"South America","pricing_region":"South America"},{"code":"EZE","name":"Buenos Aires","state":"","country":"Argentina","country_code":"AR","count":2,"latitude":-34.8222,"longitude":-58.5358,"region":"South America","pricing_region":"South America"},{"code":"SCL","name":"Santiago","state":"","country":"Chile","country_code":"CL","count":1,"latitude":-33.393,"longitude":-70.7858,"region":"South America","pricing_region":"South America"},{"code":"TLV","name":"Tel Aviv","state":"","country":"Israel","country_code":"IL","count":2,"latitude":32.0114,"longitude":34.8867,"region":"Middle East","pricing_region":"Europe & Israel"},{"code":"BAH","name":"Manama","state":"","country":"Bahrain","country_code":"BH","count":2,"latitude":26.2708,"longitude":50.6336,"region":"Middle East","pricing_region":"South Africa, Kenya, & Middle East"},{"code":"DXB","name":"Dubai","state":"","country":"UAE","country_code":"AE","count":1,"latitude":25.2528,"longitude":55.3644,"region":"Middle East","pricing_region":"South Africa, Kenya, & Middle East"},{"code":"FJR","name":"Fujairah","state":"","country":"UAE","country_code":"AE","count":1,"latitude":25.112223,"longitude":56.324165,"region":"Middle East","pricing_region":"South Africa, Kenya, & Middle East"},{"code":"CPT","name":"Cape Town","state":"","country":"South Africa","country_code":"ZA","count":1,"latitude":-33.9648,"longitude":18.6017,"region":"Africa","pricing_region":"South Africa, Kenya, & Middle East"},{"code":"JNB","name":"Johannesburg","state":"","country":"South Africa","country_code":"ZA","count":1,"latitude":-26.1392,"longitude":28.246,"region":"Africa","pricing_region":"South Africa, Kenya, & Middle East"},{"code":"NBO","name":"Nairobi","state":"","country":"Kenya","country_code":"KE","count":1,"latitude":-1.31924,"longitude":36.9278,"region":"Africa","pricing_region":"South Africa, Kenya, & Middle East"},{"code":"PVG","name":"Shanghai","state":"","country":"China","country_code":"CN","count":1,"latitude":31.1434,"longitude":121.805,"region":"China","pricing_region":"China"},{"code":"SZX","name":"Shenzhen","state":"","country":"China","country_code":"CN","count":1,"latitude":22.6393,"longitude":113.811,"region":"China","pricing_region":"China"},{"code":"ZHY","name":"Zhongwei","state":"","country":"China","country_code":"CN","count":1,"latitude":37.572777,"longitude":105.15444,"region":"China","pricing_region":"China"},{"code":"PEK","name":"Beijing","state":"","country":"China","country_code":"CN","count":1,"latitude":40.0801,"longitude":116.585,"region":"China","pricing_region":"China"},{"code":"HKG","name":"Hong Kong","state":"","country":"China","country_code":"HK","count":4,"latitude":22.3089,"longitude":113.915,"region":"China","pricing_region":"China"},{"code":"CMH","name":"Columbus","state":"Ohio","country":"United States","country_code":"US","count":1,"latitude":39.998055,"longitude":-82.891945,"region":"North America","pricing_region":"United States, Mexico, & Canada"},{"code":"HIO","name":"Hillsboro","state":"Oregon","country":"United States","country_code":"US","count":1,"latitude":45.540394,"longitude":-122.94982,"region":"North America","pricing_region":"United States, Mexico, & Canada"},{"code":"TPA","name":"Tampa","state":"Florida","country":"United States","country_code":"US","count":1,"latitude":27.979721,"longitude":-82.53472,"region":"North America","pricing_region":"United States, Mexico, & Canada"},{"code":"PNQ","name":"Pune","state":"Maharashtra","country":"India","country_code":"IN","count":1,"latitude":18.582222,"longitude":73.91972,"region":"Asia","pricing_region":"India"},{"code":"MCT","name":"Muscat","state":"Muscat","country":"Oman","country_code":"OM","count":1,"latitude":23.601538,"longitude":58.289936,"region":"Middle East","pricing_region":"South Africa, Kenya, & Middle East"}]
